village,district,lat,lon,rainfall_mm,vegetation_index,historical_bites_per_year,season_factor
Parkal,Warangal,18.1900,79.7100,180,0.72,14,1.2
Thorrur,Mahbubabad,17.5200,80.0400,220,0.81,22,1.4
Kothagudem,Khammam,17.5500,80.6200,190,0.76,17,1.3
Bhadrachalam,Bhadrachalam,17.6688,80.8935,260,0.85,28,1.5
Nalgonda Rural,Nalgonda,17.1200,79.3500,140,0.65,9,1.0
